category,no_in_category,name,latitude,longitude,visited_dates,city,notes
日本三景,1,天橋立,35.56988273017662, 135.1918669565685,2024-05-03,京都府宮津市,
日本三景,2,松島,38.36871093676138, 141.06334161173962,2019-08-13,宮城県松島市,
日本三景,3,宮島,34.29598381599792, 132.31983402362258,2017-03-14,広島県廿日市市,
日本三名園,1,偕楽園,36.37504211306947, 140.45295548888333,2023-09-24
日本三名園,2,兼六園,36.5620932738076, 136.66267295650368,2018-09-11
日本三名園,3,後楽園,34.6678721226863, 133.9359339803314
自由に到達可能な東西南北端,東,納沙布岬,43.38519160905495, 145.81654755886592,2020-02-26
自由に到達可能な東西南北端,西,与那国島 西崎,24.449789986467366, 122.93425231547057
自由に到達可能な東西南北端,南,波照間島 高那崎,24.047897539379445, 123.79485846006034
自由に到達可能な東西南北端,北,宗谷岬,45.522905175810564, 141.936585895901,2024-01-30
本土の東西南北端,東,納沙布岬,43.38519160905495, 145.81654755886592,2020-02-26
本土の東西南北端,西,神崎鼻,33.217557211295215, 129.55281353799487,2023-10-05
本土の東西南北端,西_沖縄,大嶺崎（那覇空港）,26.202509975501098, 127.63241319612878,"2017-06-23,2019-06-17"
本土の東西南北端,南,佐多岬,30.99646052381714, 130.66056075784817,2023-02-07
本土の東西南北端,南_沖縄,荒崎,26.075250788654063, 127.67665333389098
本土の東西南北端,北,宗谷岬,45.522905175810564, 141.936585895901,2024-01-30
本土各島の東西南北端,北海道-東,納沙布岬,43.38519160905495, 145.81654755886592,2020-02-26
本土各島の東西南北端,北海道-西,尾花岬,42.31082150329687, 139.7662325689474
本土各島の東西南北端,北海道-南,白神岬,41.39851119816143, 140.19985174674588
本土各島の東西南北端,北海道-北,宗谷岬,45.522905175810564, 141.936585895901,2024-01-30
本土各島の東西南北端,本州-東,魹ヶ崎,39.545565271847174, 142.07126140112638
本土各島の東西南北端,本州-西,毘沙ノ鼻,34.1101009910917, 130.86245730291571
本土各島の東西南北端,本州-南,潮岬（クレ崎）,33.43621313200505, 135.76212717375554
本土各島の東西南北端,本州-北,大間崎,41.5463937332725, 140.9126717503196
本土各島の東西南北端,四国-東,蒲生田岬,33.83418970791525, 134.74941491251823
本土各島の東西南北端,四国-西,佐田岬,33.34345211061179, 132.01315659396224
本土各島の東西南北端,四国-南,足摺岬,32.724156533968056, 133.0202665090121,2021-03-24
本土各島の東西南北端,四国-北,竹居観音岬,34.398804642463624, 134.1402974566905,2022-08-21
本土各島の東西南北端,九州-東,鶴御崎,32.93244205419117, 132.0827589916762
本土各島の東西南北端,九州-西,神崎鼻,33.217557211295215, 129.55281353799487,2023-10-05
本土各島の東西南北端,九州-南,佐多岬,30.99646052381714, 130.66056075784817,2023-02-07
本土各島の東西南北端,九州-北,潮見鼻,33.96197763410593, 130.96336917107917,2019-11-29
本土各島の東西南北端,沖縄-東,瀬嵩埼,26.749434541297173, 128.323979698793
本土各島の東西南北端,沖縄-西,大嶺崎（那覇空港）,26.202509975501098, 127.63241319612878,"2017-06-23,2019-06-17"
本土各島の東西南北端,沖縄-南,荒崎,26.075250788654063, 127.67665333389098
本土各島の東西南北端,沖縄-北,辺戸岬,26.87328736851654, 128.264299609126
新日本八景,1,室戸岬,33.24496605391711, 134.17652734687914,2021-03-26,
新日本八景,2,十和田湖,40.469603472541735, 140.88640410315762,2021-09-01
新日本八景,1,室戸岬,33.24496605391711,134.17652734687914,2021-03-26,
新日本八景,2,十和田湖,40.469603472541735,140.88640410315762,2021-09-01,
新日本八景,3,温泉岳（雲仙岳）,32.780413495468984,130.26724073274684,2023-10-06,
新日本八景,4,木曽川,35.39299665217276,136.94539837446166,2018-05-03,
新日本八景,5,上高地,36.248736299092386,137.63812154144924,,
新日本八景,6,華厳滝,36.73784098692607,139.50403549776578,2024-08-31,
新日本八景,7,別府温泉,33.31617362621019,131.4777995690647,2025-03-24,
新日本八景,8,狩勝峠,43.13601959291394,142.76488124783648,2024-06-05,
日本二十五勝,1,屋島,34.35942821684223,134.10252158608236,2022-08-20
日本二十五勝,2,鞆の浦,34.384816302817036,133.3818867277094,
日本二十五勝,3,若狭高浜,35.49250630029996,135.544770631589,
日本二十五勝,4,富士五湖,35.473711718223754,138.57367586691373,2023-08-18
日本二十五勝,5,琵琶湖,35.326671702128024,136.14857375686464,xxxx-xx-xx
日本二十五勝,6,大沼,41.98381303703611,140.67214770556117,
日本二十五勝,7,立山,36.57579639841373,137.6198297564912,2024-04-27
日本二十五勝,8,阿蘇山,32.99922222222222,131.03305555555556,"2024-02-06,2025-03-25"
日本二十五勝,9,木曾御嶽,35.8824242481705,137.44931770737156,
日本二十五勝,10,白馬岳,36.75851223306643,137.75855747151041,
日本二十五勝,11,利根川,36.10917464213397,139.7766164206228,2025-01-12
日本二十五勝,12,球磨川,32.40232686570598,130.6501563563135,
日本二十五勝,13,長良川,35.43940162842088,136.7720953484525,xxxx-xx-xx
日本二十五勝,14,瀞八丁,33.90269458254083,135.88058704449028,
日本二十五勝,15,黒部峡谷,36.6967538794155,137.65913532405455,
日本二十五勝,16,昇仙峡,35.74547815930833,138.567628375013,2021-06-27
日本二十五勝,17,天竜峡,35.441446665825026,137.81865356352824,
日本二十五勝,18,那智滝,33.67530253531357,135.88760713266066,2017-03-28
日本二十五勝,19,養老の滝,35.280387445410156,136.5342674329461,xxxx-xx-xx
日本二十五勝,20,袋田滝,36.764460017686645,140.4070021781735,
日本二十五勝,21,熱海温泉,35.10389526850315,139.07796824024447,2014-05-08
日本二十五勝,22,塩原温泉,36.96831438030112,139.8230988645598,
日本二十五勝,23,箱根温泉,35.233204098345794,139.10379124212514,2024-11-04
日本二十五勝,24,奈良盆地,34.689908048662176,135.79428186182147,2023-05-03
日本二十五勝,25,日田盆地,33.32061034635207,130.94041601097,2024-02-07
日本百景,1,高田松原,39.007997696550184, 141.62628225653796,
日本百景,2,男鹿半島,39.917808146432584, 139.79387462059515,2021-08-30
日本百景,3,石巻海岸,38.41432801869282, 141.35143514521914,
日本百景,4,気仙沼湾,38.86678041983974, 141.58807951656584,
日本百景,5,新舞子,37.038268283560754, 140.97411219707953,
日本百景,6,松川浦,37.80813009065165, 140.9761093057543
日本百景,7,鏡ヶ浦,35.003506573064286, 139.85777982358826,
日本百景,8,江ノ島,35.29994701676025, 139.48101892239686,2021-01-30
日本百景,9,沼津湾（千本松原静浦）,35.0940043539458, 138.8462840380609
日本百景,10,笹川流,38.37542231993161, 139.4581860272242
日本百景,11,九十九湾,37.30623462159578, 137.23617957617122,2023-10-29
日本百景,12,蒲郡海岸,34.81495074160377, 137.23320563980212,2024-01-08
日本百景,13,御浜鬼ヶ城,33.890602319009545, 136.11653086003693,
日本百景,14,鳥羽湾,34.484205891104956, 136.85030509441006,xxxx-xx-xx
日本百景,15,赤穂御崎,34.731284516798695, 134.4098716045727
日本百景,16,浦富海岸,35.590408267917674, 134.3250736509561
日本百景,17,下津井海岸,34.43661447101068, 133.8000425241512
日本百景,18,忠海海岸,34.333140874381094, 132.98606894626892
日本百景,19,青海島,34.414827246555134, 131.1954429151129
日本百景,20,室積湾,33.926035102749765, 131.9772059827983
日本百景,21,鳴門,34.236432049573644, 134.64342873483156
日本百景,22,唐津松浦潟,33.445973267195676, 130.01611009125108
日本百景,23,九十九島,33.144823222070336, 129.67499276574827,2023-10-05
日本百景,24,錦江湾,31.66501073266122, 130.71120355413402,2023-02-08
日本百景,25,菅沼,36.82823841823574, 139.36482585226372
日本百景,26,宍道湖,35.44839754681428, 132.9607856538036,2013-09-20
日本百景,27,加茂湖,38.06845145083501, 138.4330701308213
日本百景,28,田沢湖,39.727282434111764, 140.66221116986375,2021-09-01
日本百景,29,一碧湖,34.92955265363264, 139.10556768926003
日本百景,30,洞爺湖,42.61384867252741, 140.82732575836826,2024-06-06
日本百景,31,霞ヶ浦,36.02805754879733, 140.4017516174873
日本百景,32,猪苗代湖,37.47552374340427, 140.09458181989285,2021-08-22
日本百景,33,中禅寺湖,36.73422758912869, 139.4774174511981,"2021-02-06,2024-08-31"
日本百景,34,尾瀬沼,36.9270900633168, 139.30525352232831
日本百景,35,鳥海山,39.098127632100216, 140.044544422322,2021-08-30
日本百景,36,霊山,37.76867511109873, 140.6871496804986
日本百景,37,筑波山,36.22516655183102, 140.10740664006155
日本百景,38,赤城山,36.53892215396627, 139.1663932815133
日本百景,39,妙義山,36.29856637633398, 138.74897831282414
日本百景,40,清澄山,35.1634872925585, 140.15497928004126
日本百景,41,高尾山,35.62501575733299, 139.2435086003418,2023-11-21
日本百景,42,駒ヶ岳,35.757857283204125, 138.23689453729534
日本百景,43,朝熊山,34.45955819149399, 136.8054674821281,2013-08-03
日本百景,44,大台ヶ原山,34.18518775417486, 136.10902114550657
日本百景,45,信貴山,34.612662743690485, 135.66819546204218
日本百景,46,雪彦山,35.07307784143222, 134.65102245812434
日本百景,47,淡路先山,34.35744655407393, 134.83860570336765
日本百景,48,大山,35.37867547389586, 133.54820709970804
日本百景,49,千光寺山,34.410978775385196, 133.1966201410168,(2025-03-04)
日本百景,50,石槌山,33.76818045102954, 133.11425370070413
日本百景,51,英彦山,33.476424583725006, 130.92608953196878
日本百景,52,霧島山,31.929080959596465, 130.9266441510761
日本百景,53,阿賀川（阿賀野川）,37.92755915490337, 139.14524949873044,(2025-02-25)
日本百景,54,富士川,35.134029248897946, 138.6326351634106
日本百景,55,保津川,35.012909303770236, 135.67709187285877
日本百景,56,宇治川,34.90690189280016, 135.79330214486478
日本百景,57,古座川,33.530087978176475, 135.8149300816501
日本百景,58,江川（江の川）,34.76651552299804, 132.4868644849655
日本百景,59,川上川,33.262740158621625, 130.24389316606846,(2024-02-08)
日本百景,60,層雲峡,43.72812052723807, 142.9463059431289,2020-02-28
日本百景,61,猊鼻渓,38.99162552015766, 141.25504407976388
日本百景,62,長瀞,36.09486082782941, 139.11566430260967,2023-07-02
日本百景,63,奥多摩渓谷,35.81348109111944, 139.12863130188853,"2021-02-13,2021-11-13,2022-01-30"
日本百景,64,奥裾花渓谷,36.72697452870298, 137.96750570101943,
日本百景,65,恵那峡,35.480926078386624, 137.40678605510016,xxxx-xx-xx
日本百景,66,帝釈峡,34.86274505681875, 133.20648123859885
日本百景,67,三段峡,34.600030558881706, 132.2076083856392
日本百景,68,長門峡,34.36158170442522, 131.551654616614
日本百景,69,祖谷渓,33.88181297930827, 133.9285132379638
日本百景,70,大歩危 小歩危,33.89357089786918, 133.75697240543045
日本百景,71,寒霞渓,34.516887937993204, 134.30088918927405
日本百景,72,面河渓,33.74670388390893, 133.10368094851097
日本百景,73,耶馬渓,33.49981269167475, 131.17152681838326,2025-03-26
日本百景,74,神都高千穂峡,32.70194424599305, 131.30106888141987,2025-03-25
日本百景,75,木曽田立滝,35.62984695803728, 137.54666369672063
日本百景,76,富士白糸滝,35.31284808002406, 138.58742697929577,2023-08-17
日本百景,77,赤目四十八滝,34.563593753564504, 136.08570831562457
日本百景,78,箕面滝,34.853694081689426, 135.4719354944366
日本百景,79,神庭滝,35.118267993190386, 133.67918738595085
日本百景,80,王余魚の滝（轟の滝）,33.697356093430905, 134.2540691468672
日本百景,81,魚住滝,32.95737020861704, 131.39130032323212
日本百景,82,登別温泉,42.49777900492395, 141.14857946447304
日本百景,83,花巻温泉,39.45217828524784, 141.06948183854212
日本百景,84,青根温泉,38.146054366310686, 140.53574213217877
日本百景,85,東山温泉,37.47830027401475, 139.96265679346934
日本百景,86,伊東温泉,34.97036967209106, 139.09563409414844,2017-07-15
日本百景,87,山中温泉,36.2511022995749, 136.37407088284039
日本百景,88,和倉温泉,37.07559271858393, 136.92555986717056,(2023-10-29)
日本百景,89,片山津温泉,36.34854521496465, 136.3633695884607
日本百景,90,芦原温泉,36.22333945925434, 136.193697967044
日本百景,91,三朝温泉,35.410943138338695, 133.89305385888665
日本百景,92,嬉野温泉,33.096917460441105, 129.98109919683145
日本百景,93,八ヶ岳平原,35.968737014218114, 138.37218732307923,2023-01-29
日本百景,94,姥捨,36.50162292038355, 138.09577350106642
日本百景,95,日本平,34.9740247623624, 138.46489256008581
日本百景,96,富士駿州裾野,35.254577496464854, 138.8892562435646
日本百景,97,兎和野原,35.437327205495315, 134.58250937797098
日本百景,98,秋吉台,34.23438277446524, 131.30596549373087
日本百景,99,久住高原,33.035621436459664, 131.22619368689973
日本百景,100,飯田高原,33.15796910704535, 131.22793411166043,(2025-03-25)
日本の夜景100選,1,箱館山,41.75916012106574, 140.70418529516755,2015-09-15
日本の夜景100選,2,藻岩山,43.022051782949944, 141.32244063458677
日本の夜景100選,3,JRタワー展望室Ｔ38,43.06815327165834, 141.3524558447191,xxxx-xx-xx
日本の夜景100選,4,天狗山,43.17197858492215, 140.97210359678317
日本の夜景100選,5,測量山,42.32169728947195, 140.95860632976476,
日本の夜景100選,6,釜臥山,41.27876700965326, 141.11975634884143
日本の夜景100選,7,岩山公園,39.700871776180286, 141.18355468712278
日本の夜景100選,8,SS30,38.25630800209654, 140.8783145144736
日本の夜景100選,9,安波山,38.91384743767392, 141.5691559038139
日本の夜景100選,10,セリオン,39.752673355251616, 140.0610531422881,(2021-08-30)
日本の夜景100選,11,舞鶴公園,38.355471607875124, 140.37656836166582
日本の夜景100選,12,眺海の森,38.85873654856723, 139.97996960670253,
日本の夜景100選,13,信夫山,37.76914070384104, 140.46603924094012
日本の夜景100選,14,筑波山・表筑波スカイライン,36.173215523093525, 140.16188693219362,2023-09-24
日本の夜景100選,15,太平山,36.36315288680153, 139.69447091203483
日本の夜景100選,16,織姫公園,36.344477752806526, 139.44584003759687,
日本の夜景100選,17,群馬県庁展望ホール,36.39059459181681, 139.0605146414454
日本の夜景100選,18,大パノラマ夜景展望台,36.512707979539584, 139.18369161315368
日本の夜景100選,19,美の山公園,36.057177088369535, 139.11305324199242
日本の夜景100選,20,きみさらずタワー,35.37966693253547, 139.9377046631416
日本の夜景100選,21,飯岡刑部岬,35.693434763900534, 140.73932140549513
日本の夜景100選,22,アイ・リンクタウン展望室,35.72919611414163, 139.90609462129893
日本の夜景100選,23,東京タワー,35.6585825746857, 139.74545207317854,xxxx-xx-xx
日本の夜景100選,24,六本木ヒルズ,35.660425830109496, 139.72936063572956,2024-07-18
日本の夜景100選,25,都庁,35.68945755467383, 139.6916729474888,xxxx-xx-xx
日本の夜景100選,26,サンシャイン60,35.729381725673164, 139.71817765708008,xxxx-xx-xx
日本の夜景100選,27,世界貿易センタービル,35.655194771636154, 139.7563326786475
日本の夜景100選,28,横浜ランドマークタワー,35.45493646603446, 139.63140735709644
日本の夜景100選,29,横浜港大さん橋国際客船ターミナル,35.451150325387744, 139.64734425680328
日本の夜景100選,30,湘南平,35.31979849881054, 139.3085659646374,2022-12-24
日本の夜景100選,31,菜の花台,35.41002557728392, 139.2087244022763
日本の夜景100選,32,笛吹川フルーツ公園,35.70209014223386, 138.66490812468246,2021-09-25
日本の夜景100選,33,新倉山浅間公園,35.50138576523298, 138.80163087549212,(2023-08-18)
日本の夜景100選,34,八代ふるさと公園,35.602661910066125, 138.64547981326686,2021-06-27
日本の夜景100選,35,朱鷺メッセ展望室,37.92532456494243, 139.05948972463503,2025-02-25
日本の夜景100選,36,弥彦山,37.710111021952756, 138.81001620819845,2022-05-06
日本の夜景100選,37,富山市役所,36.6957868065953, 137.21364087738652,
日本の夜景100選,38,二上山,36.79455037166367, 137.02636671110494
日本の夜景100選,39,卯辰山,36.57087893638774, 136.6780403593704
日本の夜景100選,40,石川県庁,36.5945155476585, 136.6257936677353
日本の夜景100選,41,獅子吼高原,36.44656913058609, 136.64814891529034
日本の夜景100選,42,村国山,35.90101903879218, 136.181713819474
日本の夜景100選,43,姨捨SA,36.498130464573855, 138.09737744275742
日本の夜景100選,44,城山公園,36.24568480660411, 137.95435212525558
日本の夜景100選,45,立石公園,36.05332600914057, 138.1227662196933
日本の夜景100選,46,金華山,35.43242810667493, 136.78068148801077,xxxx-xx-xx
日本の夜景100選,47,池田山,35.44107189989789, 136.51689775572535
日本の夜景100選,48,伊豆スカイライン,35.00977083098863, 139.04331394237002,(2021-05-15)
日本の夜景100選,49,熱海城,35.086382552369244, 139.07864348461516
日本の夜景100選,50,富士川SA,35.16179677593057, 138.6172961772095
日本の夜景100選,51,東山スカイタワー,35.156766946751894, 136.97880234090454
日本の夜景100選,52,蔵王山展望台,34.68480087821868, 137.26196481445945,(2022-04-30)
日本の夜景100選,53,垂坂公園・羽津山緑地,35.00052132254271, 136.62270928658472
日本の夜景100選,54,	比叡山ドライブウェイ,35.065878252180255, 135.83208636100176,(xxxx-xx-xx)
日本の夜景100選,55,将軍塚（東山山頂公園）,35.0018372499291, 135.78682616919005
日本の夜景100選,56,比叡山ドライブウェイ,35.05279220144968, 135.83141646594996,(xxxx-xx-xx)
日本の夜景100選,57,万灯呂山展望台,34.8135097057153, 135.8231357566653
日本の夜景100選,58,あべのハルカス ハルカス300,34.64580303863721, 135.51348074524483
日本の夜景100選,59,梅田スカイビル空中庭園,34.70525516923876, 135.49016131389968,
日本の夜景100選,60,コスモタワー 大阪府咲洲庁舎展望台,34.63806567403882, 135.41461808474327
日本の夜景100選,61,信貴生駒スカイライン,34.659286820658316, 135.67136332852016
日本の夜景100選,62,紀ノ川SA,34.27470961549829, 135.24842639244872
日本の夜景100選,63,鷲ヶ峰コスモスパーク,34.092840560988186, 135.23407765115775
日本の夜景100選,64,鷲羽山スカイライン,34.472465872695075, 133.78887637397392
日本の夜景100選,65,遙照山総合公園,34.57125456628654, 133.61804669427707
日本の夜景100選,66,黄金山,34.36655634408221, 132.49042086802956,2025-03-04
日本の夜景100選,67,灰ヶ峰,34.269935503854676, 132.59343185186412
日本の夜景100選,68,千光寺展望台,34.41070602257255, 133.1974830368297
日本の夜景100選,69,火の山,33.97267775971737, 130.95918584198924
日本の夜景100選,70,竜王山公園,33.956548796137895, 131.1678220408546
日本の夜景100選,71,眉山,34.067106300395444, 134.53752126717507,2014-09-23
日本の夜景100選,72,屋島 獅子の霊厳,34.35844581333413, 134.09853878756638,2022-08-20
日本の夜景100選,73,天使のすむ丘 サンアンジェリーナ展望台,34.31996562548108, 133.83102927982856
日本の夜景100選,74,松山総合公園,33.84449232281537, 132.7410436453447
日本の夜景100選,75,具定展望台,33.95795069164443, 133.52511039638736
日本の夜景100選,76,五台山公園,33.54673651466059, 133.5741474634675
日本の夜景100選,77,皿倉山,33.846730187673316, 130.79679983096912
日本の夜景100選,78,福岡タワー,33.593295270495716, 130.3514888368633
日本の夜景100選,79,油山片江展望台,33.53059226228993, 130.36684581073533
日本の夜景100選,80,米の山展望広場,33.605688561611906, 130.54033723894358
日本の夜景100選,81,道の駅吉野ヶ里,33.38023544533349, 130.39727939074623
日本の夜景100選,82,稲佐山,32.752616653989136, 129.84959410540296,2023-10-04
日本の夜景100選,83,弓張岳展望台,33.17934491020664, 129.70081984912875
日本の夜景100選,84,花岡山,32.79652092792606, 130.6859440206291
日本の夜景100選,85,金峰山,32.813781801903374, 130.63871271956904
日本の夜景100選,86,十文字原展望台,33.32975760592789, 131.46026122712664
日本の夜景100選,87,愛宕山公園,32.56209024311046, 131.66967365121425
日本の夜景100選,87,愛宕山公園,32.56209024311046, 131.66967365121425
日本の夜景100選,88,金御岳公園,31.66411317044032, 131.0801381677629
日本の夜景100選,89,城山展望台,31.59624248706469, 130.5500444971472,xxxx-xx-xx
日本の夜景100選,90,城山公園,31.74121727919329, 130.78107684624368
日本の夜景100選,91,浦添大公園,26.249694970651145, 127.7290039343352
拠点空港,会社管理1,成田国際空港,35.7722251214565, 140.38627323994763,"2016-05-23,2018-03-25"
拠点空港,会社管理2,中部国際空港,34.85926565441404, 136.81611185421968,xxxx-xx-xx
拠点空港,会社管理3,関西国際空港,34.43593623089248, 135.24341222310343,
拠点空港,会社管理4,大阪国際空港,34.791393066196385, 135.44198825908595,
拠点空港,国管理1,東京国際空港（羽田空港）,35.55284939330577, 139.78415116823123,"2025-03-26,他多数"
拠点空港,国管理2,新千歳空港,42.78758901325025, 141.68041693822863,"2016-09-19,2024-06-04,他多数"
拠点空港,国管理3,稚内空港,45.39954636017783, 141.7975895236786,
拠点空港,国管理4,釧路空港,43.045150370198385, 144.19627487418182
拠点空港,国管理5,函館空港,41.7757042425323, 140.8158210420703,2025-??-??
拠点空港,国管理6,仙台空港,38.13809871969649, 140.92991079321797
拠点空港,国管理7,新潟空港,37.95208884527103, 139.113270988442
拠点空港,国管理8,広島空港,34.44006185154478, 132.9188453495006,2025-03-04
拠点空港,国管理9,高松空港,34.218814817328685, 134.018737379259
拠点空港,国管理10,松山空港,33.82893011282363, 132.70429299680836,2025-??-??
拠点空港,国管理11,高知空港,33.54761498864953, 133.6740992140731,2021-03-24
拠点空港,国管理12,福岡空港,33.58519272017298, 130.44399550657758,"2016-03-15,2017-11-25,2019-03-14"
拠点空港,国管理13,北九州空港,33.83958804369873, 131.0317333758134
拠点空港,国管理14,長崎空港,32.91448019592898, 129.92213644321598,2023-10-04
拠点空港,国管理15,熊本空港,32.83473860625796, 130.8590191192712,2024-02-05
拠点空港,国管理16,大分空港,33.47626109668148, 131.73263788190687,2025-03-24
拠点空港,国管理17,宮崎空港,31.872838820045533, 131.44164767063245,2025-03-24
拠点空港,国管理18,鹿児島空港,31.801151296205365, 130.71603673617568,2023-02-06
拠点空港,国管理19,那覇空港,26.208007473725193, 127.65089685426358,"2017-06-23,2019-06-17"
拠点空港,特定地方管理1,旭川空港,43.670617685781345, 142.45444474296585,2020-02-28
拠点空港,特定地方管理2,帯広空港,42.732229517256805, 143.2127242191209
拠点空港,特定地方管理3,秋田空港,39.6118791067311, 140.2198639006137
拠点空港,特定地方管理4,山形空港,38.41054263747263, 140.36644002292647
拠点空港,特定地方管理5,山口宇部空港,33.93311713011551, 131.27493063653358,2020-10-28
国立公園,1,利尻礼文サロベツ国立公園,45.178200280760464, 141.23939409954784,2024-01-30
国立公園,2,知床国立公園,44.152821568098574, 145.1867648152353,2020-02-25
国立公園,2,知床国立公園,44.152821568098574, 145.1867648152353,2020-02-25
国立公園,3,阿寒摩周国立公園,43.52668617422489, 144.22829276022853,2020-02-27
国立公園,4,釧路湿原国立公園,43.10947843123149, 144.3983667184413,2020-02-26
国立公園,5,大雪山国立公園,43.658343380518794, 142.86306494114774,2020-02-26
国立公園,6,日高山脈襟裳十勝国立公園,41.926069153498126, 143.24456178720655,2024-06-05
国立公園,7,支笏洞爺国立公園,42.7561767327256, 141.33026541659842,2024-06-07
国立公園,8,十和田八幡平国立公園,40.47110934048868, 140.88627737768655,2021-09-01
国立公園,9,三陸復興国立公園,39.007239770843654, 141.6268094473879
国立公園,10,磐梯朝日国立公園,38.7044979486495, 139.96766304844414,"2021-08-22,2021-08-30"
国立公園,11,日光国立公園,36.738387509961996, 139.50199088042842,"2021-02-06,2024-08-31"
国立公園,12,尾瀬国立公園,36.93496782837941, 139.23401448697805
国立公園,13,上信越高原国立公園,36.44297833581338, 138.5374158291381,"2014-08-02,2022-01-29,2023-07-23"
国立公園,14,妙高戸隠連山国立公園,36.828835936357464, 138.0791544628742
国立公園,15,秩父多摩甲斐国立公園,35.92543117788313, 138.93045723037127,"2021-01-09,2021-02-13,2021-06-27"
国立公園,16,小笠原国立公園,27.070201367156166, 142.21283617032105
国立公園,17,富士箱根伊豆国立公園,35.36188203653305, 138.73113807010023,"2017-09-08,2021-05-15,2023-08-18,他多数"
国立公園,18,中部山岳国立公園,36.58082057255814, 137.59751733082612,2024-04-27
国立公園,10,白山国立公園,36.16094504769295, 136.76650687277703
国立公園,20,南アルプス国立公園,35.67480678476896, 138.23881657285753
国立公園,21,伊勢志摩国立公園,34.39103586538149, 136.77973995900277,2013-08-03
国立公園,22,吉野熊野国立公園,34.112145404569674, 135.93952857133348,2017-03-28
国立公園,23,山陰海岸国立公園,35.546311326912395, 134.2326165785396,2018-08-23
国立公園,24,瀬戸内海国立公園,34.29596627127219, 132.31983441655333,"2017-03-14,2022-08-20,2025-03-05"
国立公園,25,大山隠岐国立公園,35.37517216313916, 133.54883828319157,2013-09-20
国立公園,26,足摺宇和海国立公園,32.72511979465165, 133.01960147443057,2021-03-24
国立公園,27,西海国立公園,33.21754468643158, 129.55365225140721,2023-10-05
国立公園,28,雲仙天草国立公園,32.74077247402044, 130.26167020710963,2023-10-06
国立公園,29,阿蘇くじゅう国立公園,32.88437782975219, 131.08556734614626,"2024-02-06,2025-03-25"
国立公園,30,霧島錦江湾国立公園,31.911638827240612, 130.8832852889173,"xxxx-xx-xx,2023-02-08"
国立公園,31,屋久島国立公園,30.33244429110601, 130.5338607120797,"xxxx-xx-xx,2018-08-02"
国立公園,32,奄美群島国立公園,28.265031053413963, 129.37550054834148,"xxxx-xx-xx"
国立公園,33,やんばる国立公園,26.77585613351588, 128.27592086637608
国立公園,34,慶良間諸島国立公園,26.20145320773654, 127.35748582555122
国立公園,35,西表石垣国立公園,24.336179283114706, 123.82360827236369
日本百名橋,1,豊平橋,43.0555555,141.3644444,,北海道札幌市豊平区
日本百名橋,2,旭橋,43.7783333,142.36,,北海道旭川市
日本百名橋,3,幣舞橋,42.9811111,144.3855555,,北海道釧路市
日本百名橋,4,湊橋,40.5236111,141.5227777,,青森県八戸市
日本百名橋,5,上の橋,39.7052777,141.1563888,,岩手県盛岡市
日本百名橋,6,大橋,38.2580555,140.86,2022-09-30,宮城県仙台市青葉区
日本百名橋,7,蛇の崎橋,39.3177777,140.5652777,,秋田県横手市
日本百名橋,8,臥龍橋,38.4044444,140.2330555,,山形県寒河江市
日本百名橋,9,信夫橋,37.7444444,140.4633333,,福島県福島市
日本百名橋,10,十綱橋,37.8305555,140.4552777,,福島県福島市
日本百名橋,11,水府橋,36.3772222,140.4813888,,茨城県水戸市
日本百名橋,12,日光 神橋,36.7533333,139.6041666,2024-08-29,栃木県日光市
日本百名橋,13,大渡橋,36.4066666,139.05,,群馬県前橋市
日本百名橋,14,碓氷第三橋梁（めがね橋）,36.3580555,138.6983333,,群馬県安中市
日本百名橋,15,秩父橋,36.0180555,139.0861111,,埼玉県秩父市
日本百名橋,16,水郷大橋,35.9083333,140.4908333,,千葉県香取市
日本百名橋,17,四谷見付橋,35.6858333,139.7305555,xxxx-xx-xx,東京都新宿区
日本百名橋,18,氷川大橋,35.8075,139.0963888,2021-11-13,東京都奥多摩町
日本百名橋,19,千住大橋,35.73940446996005, 139.7975266253993,xxxx-xx-xx,東京都足立区・東京都荒川区
日本百名橋,20,両国橋,35.6941666,139.7888888,xxxx-xx-xx,東京都墨田区
日本百名橋,21,常盤橋,35.6852777,139.7708333,xxxx-xx-xx,東京都中央区
日本百名橋,22,日本橋,35.6838888,139.7744444,xxxx-xx-xx,東京都中央区
日本百名橋,23,永代橋,35.6763888,139.7875,,東京都中央区
日本百名橋,24,二重橋,35.68,139.7547222,xxxx-xx-xx,東京都千代田区
日本百名橋,25,八幡橋（弾正橋）,35.6719444,139.8005555,,東京都江東区
日本百名橋,26,横浜ベイブリッジ,35.4547222,139.6741666,2022-11-06,神奈川県横浜市中区
日本百名橋,27,六郷橋,35.5363888,139.7083333,2021-01-30,神奈川県川崎市多摩区
日本百名橋,28,馬入橋,35.3319444,139.3669444,2022-12-24,神奈川県平塚市
日本百名橋,29,万代橋,37.9197222,139.0530555,2025-02-26,新潟県新潟市中央区
日本百名橋,30,直江津橋,37.1744444,138.2486111,,新潟県上越市
日本百名橋,31,愛本橋,36.8602777,137.5538888,,富山県黒部市
日本百名橋,32,越中 舟橋,36.6944444,137.2075,,富山県富山市
日本百名橋,33,犀川大橋,36.5586111,136.6502777,,石川県金沢市
日本百名橋,34,九十九橋,36.0630555,136.2113888,,福井県福井市
日本百名橋,35,甲斐の猿橋,35.6152777,138.9813888,,山梨県大月市
日本百名橋,36,中津橋,36.2708333,138.4180555,,長野県佐久市
日本百名橋,37,桃介橋,35.6005555,137.6061111,,長野県南木曽町
日本百名橋,38,中橋,36.14,137.2591666,,岐阜県高山市
日本百名橋,39,永保寺、無際橋,35.3466666,137.13,,岐阜県多治見市
日本百名橋,40,長良大橋,35.3619444,136.6886111,xxxx-xx-xx,岐阜県岐阜市
日本百名橋,41,富士川橋,35.155,138.6241666,,静岡県富士市
日本百名橋,42,大井川橋,34.8316666,138.1455555,,静岡県島田市
日本百名橋,43,浜名橋,34.6936111,137.5869444,,静岡県湖西市
日本百名橋,44,矢作橋,34.9594444,137.1497222,,愛知県岡崎市
日本百名橋,45,納屋橋,35.1677777,136.8922222,,愛知県名古屋市中区
日本百名橋,46,枇杷島橋,35.1922222,136.8675,,愛知県清須市
日本百名橋,47,伊勢 宇治橋,34.4586111,136.7233333,2017-03-28,三重県伊勢市
日本百名橋,48,瀬田唐橋,34.9730555,135.9066666,,滋賀県大津市
日本百名橋,49,大宮橋,35.0716666,135.8622222,,滋賀県大津市
日本百名橋,50,三条大橋,35.0091666,135.7716666,xxxx-xx-xx,京都府京都市中京区
日本百名橋,51,五条大橋,34.9955555,135.7677777,xxxx-xx-xx,京都府京都市下京区
日本百名橋,52,上賀茂神社 橋殿,35.0597222,135.7527777,,京都府京都市北区
日本百名橋,53,渡月橋,35.0127777,135.6777777,,京都府京都市西京区
日本百名橋,54,東福寺 偃月橋,34.9766666,135.7738888,,京都府京都市東山区
日本百名橋,55,宇治橋,34.8930555,135.8061111,,京都府宇治市
日本百名橋,56,上津屋橋（流れ橋）,34.8686111,135.7483333,,京都府八幡市
日本百名橋,57,泉大橋,34.7430555,135.8216666,,京都府木津川市
日本百名橋,58,長柄橋,34.7211111,135.51,,大阪府大阪市北区、東淀川区
日本百名橋,59,難波橋,34.6927777,135.5072222,,大阪府大阪市中央区
日本百名橋,60,高麗橋,34.6891666,135.5097222,,大阪府大阪市中央区
日本百名橋,61,淀屋橋,34.6930555,135.5011111,2019-09-11,大阪府大阪市中央区
日本百名橋,62,心斎橋,34.6744444,135.5002777,,大阪府大阪市中央区
日本百名橋,63,住吉の反橋,34.6125,135.4930555,,大阪府大阪市住吉区
日本百名橋,64,明石海峡大橋,34.6177777,135.0222222,2022-08-22,兵庫県明石市
日本百名橋,65,餘部橋梁（余部鉄橋）,35.6494444,134.5597222,,兵庫県香美町
日本百名橋,66,神子畑橋,35.2425,134.7172222,,兵庫県朝来市
日本百名橋,67,武庫大橋,34.7319444,135.38,,兵庫県西宮市
日本百名橋,68,谷瀬の吊橋,34.1016666,135.7627777,,奈良県十津川村
日本百名橋,69,不老橋（三断橋）,34.1866666,135.1727777,,和歌山県和歌山市
日本百名橋,70,智頭橋,35.4994444,134.2280555,,鳥取県鳥取市
日本百名橋,71,松江大橋,35.4677777,133.0552777,,島根県松江市
日本百名橋,72,瀬戸大橋,34.4305555,133.8058333,2017-03-12,岡山県倉敷市
日本百名橋,73,京橋,34.6580555,133.9330555,,岡山県岡山市
日本百名橋,74,厳島 反橋,34.2958333,132.3197222,2017-03-14,広島県廿日市市
日本百名橋,75,元安橋,34.3941666,132.4538888,xxxx-xx-xx,広島県広島市中区
日本百名橋,76,錦帯橋,34.1675,132.1783333,2020-10-30,山口県岩国市
日本百名橋,77,平安橋,34.4094444,131.3880555,,山口県萩市
日本百名橋,78,吉野川橋,34.0963888,134.555,,徳島県徳島市
日本百名橋,79,祖谷のかづら橋,33.8752777,133.8352777,,徳島県三好市
日本百名橋,80,琴平 鞘橋,34.1858333,133.8216666,,香川県琴平町
日本百名橋,81,三架橋,34.1316666,133.6502777,,香川県観音寺市
日本百名橋,82,長浜大橋,33.61,132.48,,愛媛県大洲市
日本百名橋,83,御幸の橋,33.5097222,132.7933333,,愛媛県大洲市
日本百名橋,84,播磨屋橋,33.5597222,133.5430555,2021-03-25,高知県高知市
日本百名橋,85,一斗俵沈下橋,33.2847222,133.11,,高知県四万十町
日本百名橋,86,常盤橋,33.8863888,130.8775,,福岡県北九州市小倉北区
日本百名橋,87,筑後川昇開橋,33.215,130.3616666,2024-02-08,佐賀県佐賀市
日本百名橋,88,長崎 眼鏡橋,32.7475,129.8808333,2023-10-04,長崎県長崎市
日本百名橋,89,諫早 眼鏡橋,32.8455555,130.0491666,,長崎県諫早市
日本百名橋,90,西海橋,33.0530555,129.7580555,2023-10-05,長崎県西海市、佐世保市
日本百名橋,91,祗園橋,32.4563888,130.1880555,,熊本県天草市
日本百名橋,92,通潤橋,32.6816666,130.9938888,2024-02-06,熊本県山都町
日本百名橋,93,呉橋,33.5255555,131.3733333,2025-03-26,大分県宇佐市
日本百名橋,94,耶馬溪橋,33.5030555,131.1702777,2025-03-26,大分県中津市
日本百名橋,95,虹澗橋,33.0097222,131.6352777,2025-03-24,大分県豊後大野市、臼杵市
日本百名橋,96,橘橋,31.9058333,131.4202777,2023-02-07,宮崎県宮崎市
日本百名橋,97,西田橋,31.5886111,130.545,,鹿児島県鹿児島市
日本百名橋,98,天女橋,26.2183333,127.7186111,,沖縄県那覇市
