category,no_in_category,name,latitude,longitude,visited_dates,city,notes
日本三景,1,天橋立,35.56976985000000,135.19155891000000,2024-05-03,京都府宮津市,
日本三景,2,松島,38.33321554000000,141.09937835000000,2019-08-13,宮城県松島市,
日本三景,3,宮島,34.29598381599792, 132.31983402362258,2017-03-14,広島県廿日市市,
日本三名園,1,偕楽園,36.37504211306947, 140.45295548888333,2023-09-24
日本三名園,2,兼六園,36.56208384000000,136.66258067000000,2018-09-11
日本三名園,3,後楽園,34.6678721226863, 133.9359339803314
自由に到達可能な東西南北端,東,納沙布岬,43.38519160905495, 145.81654755886592,2020-02-26
自由に到達可能な東西南北端,西,与那国島 西崎,24.449789986467366, 122.93425231547057
自由に到達可能な東西南北端,南,波照間島 高那崎,24.047897539379445, 123.79485846006034
自由に到達可能な東西南北端,北,宗谷岬,45.522905175810564, 141.936585895901,2024-01-30
本土の東西南北端,東,納沙布岬,43.38519160905495, 145.81654755886592,2020-02-26
本土の東西南北端,西,神崎鼻,33.217557211295215, 129.55281353799487,2023-10-05
本土の東西南北端,西_沖縄,大嶺崎（那覇空港）,26.202509975501098, 127.63241319612878,"2017-06-23,2019-06-17"
本土の東西南北端,南,佐多岬,30.99646052381714, 130.66056075784817,2023-02-07
本土の東西南北端,南_沖縄,荒崎,26.075250788654063, 127.67665333389098
本土の東西南北端,北,宗谷岬,45.522905175810564, 141.936585895901,2024-01-30
本土各島の東西南北端,北海道-東,納沙布岬,43.38519160905495, 145.81654755886592,2020-02-26
本土各島の東西南北端,北海道-西,尾花岬,42.31082150329687, 139.7662325689474
本土各島の東西南北端,北海道-南,白神岬,41.39851119816143, 140.19985174674588
本土各島の東西南北端,北海道-北,宗谷岬,45.522905175810564, 141.936585895901,2024-01-30
本土各島の東西南北端,本州-東,魹ヶ崎,39.545565271847174, 142.07126140112638
本土各島の東西南北端,本州-西,毘沙ノ鼻,34.1101009910917, 130.86245730291571
本土各島の東西南北端,本州-南,潮岬（クレ崎）,33.43621313200505, 135.76212717375554
本土各島の東西南北端,本州-北,大間崎,41.5463937332725, 140.9126717503196
本土各島の東西南北端,四国-東,蒲生田岬,33.83418970791525, 134.74941491251823
本土各島の東西南北端,四国-西,佐田岬,33.34345211061179, 132.01315659396224
本土各島の東西南北端,四国-南,足摺岬,32.724156533968056, 133.0202665090121,2021-03-24
本土各島の東西南北端,四国-北,竹居観音岬,34.398804642463624, 134.1402974566905,2022-08-21
本土各島の東西南北端,九州-東,鶴御崎,32.93244205419117, 132.0827589916762
本土各島の東西南北端,九州-西,神崎鼻,33.217557211295215, 129.55281353799487,2023-10-05
本土各島の東西南北端,九州-南,佐多岬,30.99646052381714, 130.66056075784817,2023-02-07
本土各島の東西南北端,九州-北,潮見鼻,33.96197763410593, 130.96336917107917,2019-11-29
本土各島の東西南北端,沖縄-東,瀬嵩埼,26.749434541297173, 128.323979698793
本土各島の東西南北端,沖縄-西,大嶺崎（那覇空港）,26.202509975501098, 127.63241319612878,"2017-06-23,2019-06-17"
本土各島の東西南北端,沖縄-南,荒崎,26.075250788654063, 127.67665333389098
本土各島の東西南北端,沖縄-北,辺戸岬,26.87328736851654, 128.264299609126,
新日本八景,1,室戸岬,33.24496605391711,134.17652734687914,2021-03-26,
新日本八景,2,十和田湖,40.469603472541735,140.88640410315762,2021-09-01,
新日本八景,3,温泉岳（雲仙岳）,32.780413495468984,130.26724073274684,2023-10-06,
新日本八景,4,木曽川,35.39299665217276,136.94539837446166,2018-05-03,
新日本八景,5,上高地,36.248736299092386,137.63812154144924,,
新日本八景,6,華厳滝,36.73784098692607,139.50403549776578,2024-08-31,
新日本八景,7,別府温泉,33.31617362621019,131.4777995690647,2025-03-24,
新日本八景,8,狩勝峠,43.13601959291394,142.76488124783648,2024-06-05,
日本二十五勝,1,屋島,34.35942821684223,134.10252158608236,2022-08-20
日本二十五勝,2,鞆の浦,34.384816302817036,133.3818867277094,
日本二十五勝,3,若狭高浜,35.49250630029996,135.544770631589,
日本二十五勝,4,富士五湖,35.473711718223754,138.57367586691373,2023-08-18
日本二十五勝,5,琵琶湖,35.326671702128024,136.14857375686464,xxxx-xx-xx
日本二十五勝,6,大沼,41.98381303703611,140.67214770556117,
日本二十五勝,7,立山,36.57579639841373,137.6198297564912,2024-04-27
日本二十五勝,8,阿蘇山,32.99922222222222,131.03305555555556,"2024-02-06,2025-03-25"
日本二十五勝,9,木曾御嶽,35.8824242481705,137.44931770737156,
日本二十五勝,10,白馬岳,36.75851223306643,137.75855747151041,
日本二十五勝,11,利根川,36.10917464213397,139.7766164206228,2025-01-12
日本二十五勝,12,球磨川,32.40232686570598,130.6501563563135,
日本二十五勝,13,長良川,35.43940162842088,136.7720953484525,xxxx-xx-xx
日本二十五勝,14,瀞八丁,33.90269458254083,135.88058704449028,
日本二十五勝,15,黒部峡谷,36.6967538794155,137.65913532405455,
日本二十五勝,16,昇仙峡,35.74483091000000,138.56625660000000,2021-06-27
日本二十五勝,17,天竜峡,35.441446665825026,137.81865356352824,
日本二十五勝,18,那智滝,33.67530253531357,135.88760713266066,2017-03-28
日本二十五勝,19,養老の滝,35.280387445410156,136.5342674329461,xxxx-xx-xx
日本二十五勝,20,袋田滝,36.764460017686645,140.4070021781735,
日本二十五勝,21,熱海温泉,35.10389526850315,139.07796824024447,2014-05-08
日本二十五勝,22,塩原温泉,36.96831438030112,139.8230988645598,
日本二十五勝,23,箱根温泉,35.233204098345794,139.10379124212514,2024-11-04
日本二十五勝,24,奈良盆地,34.689908048662176,135.79428186182147,2023-05-03
日本二十五勝,25,日田盆地,33.32061034635207,130.94041601097,2024-02-07
日本百景,1,高田松原,39.007997696550184, 141.62628225653796,
日本百景,2,男鹿半島,39.917808146432584, 139.79387462059515,2021-08-30
日本百景,3,石巻海岸,38.41432801869282, 141.35143514521914,
日本百景,4,気仙沼湾,38.86678041983974, 141.58807951656584,
日本百景,5,新舞子,37.038268283560754, 140.97411219707953,
日本百景,6,松川浦,37.80813009065165, 140.9761093057543
日本百景,7,鏡ヶ浦,35.003506573064286, 139.85777982358826,
日本百景,8,江ノ島,35.29994701676025, 139.48101892239686,2021-01-30
日本百景,9,沼津湾（千本松原静浦）,35.0940043539458, 138.8462840380609
日本百景,10,笹川流,38.37542231993161, 139.4581860272242
日本百景,11,九十九湾,37.30623462159578, 137.23617957617122,2023-10-29
日本百景,12,蒲郡海岸,34.81495074160377, 137.23320563980212,2024-01-08
日本百景,13,御浜鬼ヶ城,33.890602319009545, 136.11653086003693,
日本百景,14,鳥羽湾,34.484205891104956, 136.85030509441006,xxxx-xx-xx
日本百景,15,赤穂御崎,34.731284516798695, 134.4098716045727
日本百景,16,浦富海岸,35.590408267917674, 134.3250736509561
日本百景,17,下津井海岸,34.43661447101068, 133.8000425241512
日本百景,18,忠海海岸,34.333140874381094, 132.98606894626892
日本百景,19,青海島,34.414827246555134, 131.1954429151129
日本百景,20,室積湾,33.926035102749765, 131.9772059827983
日本百景,21,鳴門,34.236432049573644, 134.64342873483156
日本百景,22,唐津松浦潟,33.445973267195676, 130.01611009125108
日本百景,23,九十九島,33.144823222070336, 129.67499276574827,2023-10-05
日本百景,24,錦江湾,31.66501073266122, 130.71120355413402,2023-02-08
日本百景,25,菅沼,36.82823841823574, 139.36482585226372
日本百景,26,宍道湖,35.44839754681428, 132.9607856538036,2013-09-20
日本百景,27,加茂湖,38.06845145083501, 138.4330701308213
日本百景,28,田沢湖,39.727282434111764, 140.66221116986375,2021-09-01
日本百景,29,一碧湖,34.92955265363264, 139.10556768926003
日本百景,30,洞爺湖,42.61384867252741, 140.82732575836826,2024-06-06
日本百景,31,霞ヶ浦,36.02805754879733, 140.4017516174873
日本百景,32,猪苗代湖,37.47552374340427, 140.09458181989285,2021-08-22
日本百景,33,中禅寺湖,36.73422758912869, 139.4774174511981,"2021-02-06,2024-08-31"
日本百景,34,尾瀬沼,36.9270900633168, 139.30525352232831
日本百景,35,鳥海山,39.098127632100216, 140.044544422322,2021-08-30
日本百景,36,霊山,37.76867511109873, 140.6871496804986
日本百景,37,筑波山,36.22516655183102, 140.10740664006155
日本百景,38,赤城山,36.53892215396627, 139.1663932815133
日本百景,39,妙義山,36.29856637633398, 138.74897831282414
日本百景,40,清澄山,35.1634872925585, 140.15497928004126
日本百景,41,高尾山,35.62501575733299, 139.2435086003418,2023-11-21
日本百景,42,駒ヶ岳,35.757857283204125, 138.23689453729534
日本百景,43,朝熊山,34.45955819149399, 136.8054674821281,2013-08-03
日本百景,44,大台ヶ原山,34.18518775417486, 136.10902114550657
日本百景,45,信貴山,34.612662743690485, 135.66819546204218
日本百景,46,雪彦山,35.07307784143222, 134.65102245812434
日本百景,47,淡路先山,34.35744655407393, 134.83860570336765
日本百景,48,大山,35.37867547389586, 133.54820709970804
日本百景,49,千光寺山,34.410978775385196, 133.1966201410168,(2025-03-04)
日本百景,50,石槌山,33.76818045102954, 133.11425370070413
日本百景,51,英彦山,33.476424583725006, 130.92608953196878
日本百景,52,霧島山,31.929080959596465, 130.9266441510761
日本百景,53,阿賀川（阿賀野川）,37.92755915490337, 139.14524949873044,(2025-02-25)
日本百景,54,富士川,35.134029248897946, 138.6326351634106
日本百景,55,保津川,35.012909303770236, 135.67709187285877
日本百景,56,宇治川,34.90690189280016, 135.79330214486478
日本百景,57,古座川,33.530087978176475, 135.8149300816501
日本百景,58,江川（江の川）,34.76651552299804, 132.4868644849655
日本百景,59,川上川,33.262740158621625, 130.24389316606846,(2024-02-08)
日本百景,60,層雲峡,43.72812052723807, 142.9463059431289,2020-02-28
日本百景,61,猊鼻渓,38.99162552015766, 141.25504407976388
日本百景,62,長瀞,36.09486082782941, 139.11566430260967,2023-07-02
日本百景,63,奥多摩渓谷,35.81348109111944, 139.12863130188853,"2021-02-13,2021-11-13,2022-01-30"
日本百景,64,奥裾花渓谷,36.72697452870298, 137.96750570101943,
日本百景,65,恵那峡,35.480926078386624, 137.40678605510016,xxxx-xx-xx
日本百景,66,帝釈峡,34.86274505681875, 133.20648123859885
日本百景,67,三段峡,34.600030558881706, 132.2076083856392
日本百景,68,長門峡,34.36158170442522, 131.551654616614
日本百景,69,祖谷渓,33.88181297930827, 133.9285132379638
日本百景,70,大歩危 小歩危,33.89357089786918, 133.75697240543045
日本百景,71,寒霞渓,34.516887937993204, 134.30088918927405
日本百景,72,面河渓,33.74670388390893, 133.10368094851097
日本百景,73,耶馬渓,33.49981269167475, 131.17152681838326,2025-03-26
日本百景,74,神都高千穂峡,32.70194424599305, 131.30106888141987,2025-03-25
日本百景,75,木曽田立滝,35.62984695803728, 137.54666369672063
日本百景,76,富士白糸滝,35.31284808002406, 138.58742697929577,2023-08-17
日本百景,77,赤目四十八滝,34.563593753564504, 136.08570831562457
日本百景,78,箕面滝,34.853694081689426, 135.4719354944366
日本百景,79,神庭滝,35.118267993190386, 133.67918738595085
日本百景,80,王余魚の滝（轟の滝）,33.697356093430905, 134.2540691468672
日本百景,81,魚住滝,32.95737020861704, 131.39130032323212
日本百景,82,登別温泉,42.49777900492395, 141.14857946447304
日本百景,83,花巻温泉,39.45217828524784, 141.06948183854212
日本百景,84,青根温泉,38.146054366310686, 140.53574213217877
日本百景,85,東山温泉,37.47830027401475, 139.96265679346934
日本百景,86,伊東温泉,34.97036967209106, 139.09563409414844,2017-07-15
日本百景,87,山中温泉,36.2511022995749, 136.37407088284039
日本百景,88,和倉温泉,37.07559271858393, 136.92555986717056,(2023-10-29)
日本百景,89,片山津温泉,36.34854521496465, 136.3633695884607
日本百景,90,芦原温泉,36.22333945925434, 136.193697967044
日本百景,91,三朝温泉,35.410943138338695, 133.89305385888665
日本百景,92,嬉野温泉,33.096917460441105, 129.98109919683145
日本百景,93,八ヶ岳平原,35.968737014218114, 138.37218732307923,2023-01-29
日本百景,94,姥捨,36.50162292038355, 138.09577350106642
日本百景,95,日本平,34.9740247623624, 138.46489256008581
日本百景,96,富士駿州裾野,35.254577496464854, 138.8892562435646
日本百景,97,兎和野原,35.437327205495315, 134.58250937797098
日本百景,98,秋吉台,34.23438277446524, 131.30596549373087
日本百景,99,久住高原,33.035621436459664, 131.22619368689973
日本百景,100,飯田高原,33.15796910704535, 131.22793411166043,(2025-03-25)
新日本観光地百選,山岳_1,藏王山,38.127863831600074,140.44644287933298,2016-11-13
新日本観光地百選,山岳_2,達磨山,34.9550004,138.8392905,2022-02-20
新日本観光地百選,山岳_3,霧島山,31.9380533,130.8615144,2023-02-08
新日本観光地百選,山岳_4,乗鞍岳,36.1067649,137.5496858,
新日本観光地百選,山岳_5,八幡平,39.949878643693914,140.85626775780216,2021-09-01
新日本観光地百選,山岳_6,英彦山,33.476424583725006,130.92608953196878,
新日本観光地百選,山岳_7,両神山,36.0234167,138.8413019,
新日本観光地百選,山岳_8,鳳來寺山,34.9839984,137.582759,
新日本観光地百選,山岳_9,伯耆大山,35.37805911547293,133.54957243302832,
新日本観光地百選,山岳_10,三瓶山,35.1346562,132.6254971,
新日本観光地百選,平原_1,日本平,34.9740247623624,138.46489256008581
新日本観光地百選,平原_2,那須高原,37.0747053,140.0052522,
新日本観光地百選,平原_3,小倉平尾台,33.761653116913905,130.90408413102264,
新日本観光地百選,平原_4,富良野芦別平原,43.48440577044285,142.46525474068235,2024-06-05
新日本観光地百選,平原_5,妙高高原,36.872324199377,138.21220107833616,
新日本観光地百選,平原_6,秋吉台,34.2341672,131.3060432,2020-10-29
新日本観光地百選,平原_7,日田盆地,33.32061034635207,130.94041601097,2024-02-07
新日本観光地百選,平原_8,野呂山高原,34.26456840172932,132.68168223304653,2025-03-05
新日本観光地百選,平原_9,浅間高原,36.43346242247609,138.50132439832106
新日本観光地百選,平原_10,霧ヶ峰高原,36.097560238048274,138.1679800904194,2021-07-03
新日本観光地百選,温泉_1,箱根,35.233223428230325,139.10357626466114,xxxx-xx-xx
新日本観光地百選,温泉_2,白浜,33.67948858396276,135.34549368139645,2016-02-25
新日本観光地百選,温泉_3,別府,33.2795647,131.5004947,xxxx-xx-xx
新日本観光地百選,温泉_4,飯坂,37.83336587916586,140.45172479245562,
新日本観光地百選,温泉_5,湯田,32.0577,130.7989096,2020-10-31
新日本観光地百選,温泉_6,芦原,36.223814867659534,136.1927755237334,
新日本観光地百選,温泉_7,伊香保,36.4996088,138.9235424,2022-02-05
新日本観光地百選,温泉_8,三朝,35.4098335,133.8943478,
新日本観光地百選,温泉_9,塩原,36.958063,139.825145,
新日本観光地百選,温泉_10,熱海,35.10389526850315,139.07796824024447,2014-05-08
新日本観光地百選,瀑布_1,赤目四十八滝,34.5664828,136.084133,
新日本観光地百選,瀑布_2,袋田滝,36.7649615,140.4017072,
新日本観光地百選,瀑布_3,白糸滝,35.31285477605836, 138.587432995302,2023-08-17
新日本観光地百選,瀑布_4,淨蓮滝,34.871929694681455,138.92215567069726,
新日本観光地百選,瀑布_5,関ノ尾滝,31.7613014,130.9875827,
新日本観光地百選,瀑布_6,秋保大滝,38.2748826,140.6028212,
新日本観光地百選,瀑布_7,養老滝,35.28038670629578, 136.53426540496716,xxxx-xx-xx
新日本観光地百選,瀑布_8,箕面滝,34.8538872,135.4719727,
新日本観光地百選,瀑布_9,黑山三滝,35.9409028,139.2455501,
新日本観光地百選,瀑布_10,奈曾ノ白滝,39.1813757,139.9431803,
新日本観光地百選,海岸_1,和歌浦友ヶ島,34.283258088896666,135.0087879478571,
新日本観光地百選,海岸_2,三陸フィヨルド,38.88951022161543,141.68076524062252,
新日本観光地百選,海岸_3,九十九島,33.1414245,129.5334635,2023-10-05
新日本観光地百選,海岸_4,日南海岸,31.76447159972587,131.48031127960456,2023-02-07
新日本観光地百選,海岸_5,櫻島,31.5805744,130.657984,2023-02-07
新日本観光地百選,海岸_6,渭南公園,32.74042461291559,132.79086182998356,2021-03-24
新日本観光地百選,海岸_7,唐津松浦潟,33.448055179247234,130.0099954754017,2023-10-05
新日本観光地百選,海岸_8,丸龜塩飽諸島,34.376557475956275,133.7419142079436,
新日本観光地百選,海岸_9,鷲羽山,34.4354877,133.8124716,
新日本観光地百選,海岸_10,柏崎福浦八景,37.35187823459295,138.48922551630113,
新日本観光地百選,河川_1,宇治川,34.91980779862451,135.75181293357858,
新日本観光地百選,河川_2,日本ライン,35.43817252997869,137.03703763109436,
新日本観光地百選,河川_3,長良川,35.5236008,136.8879889,xxxx-xx-xx
新日本観光地百選,河川_4,天龍下り,35.4967953,137.8593572,
新日本観光地百選,河川_5,球磨川,32.2153205,130.7771909,
新日本観光地百選,河川_6,阿賀野川ライン,37.73705914950652,139.30649230381624,
新日本観光地百選,河川_7,筑後川,33.348516,130.784355,(2024-02-07)
新日本観光地百選,河川_8,江戸川ライン,35.77593916450468,139.8876276624953,(xxxx-xx-xx)
新日本観光地百選,河川_9,川内川,32.013193,130.59715,
新日本観光地百選,河川_10,庄川峡,34.8265768,135.6115743,
新日本観光地百選,都邑_1,長崎,32.7522732,129.8691062,2024-02-06
新日本観光地百選,都邑_2,秩父,35.9985854,139.0859462,2021-01-09
新日本観光地百選,都邑_3,尾道,34.4048206,133.1931084,2025-03-04
新日本観光地百選,都邑_4,日光,36.7471805,139.6219414,2024-08-31
新日本観光地百選,都邑_5,札幌,43.0686365,141.3509218,xxxx-xx-xx
新日本観光地百選,都邑_6,鎌倉,35.3192808,139.5469627,2021-08-06
新日本観光地百選,都邑_7,日本水郷,35.99013899677919, 140.47341453220386,
新日本観光地百選,都邑_8,高松,34.34202067691786,134.04785294063882,2017-03-12
新日本観光地百選,都邑_9,博多,33.5899237,130.4195732,2017-11-25
新日本観光地百選,都邑_10,函館,41.7737872,140.7261884,2015-09-15
新日本観光地百選,湖沼_1,菅沼・丸沼,36.82798653230893, 139.36443384956246,
新日本観光地百選,湖沼_2,富士五湖,35.41821438178586, 138.8733730989195,2023-08-18
新日本観光地百選,湖沼_3,浜名湖,34.7391432,137.5660932,2017-09-02
新日本観光地百選,湖沼_4,琵琶湖,35.2486461,136.0825575,xxxx-xx-xx
新日本観光地百選,湖沼_5,村山・山口貯水池,35.763968946551174, 139.43421169365507,
新日本観光地百選,湖沼_6,大沼,41.9983273,140.6880651,
新日本観光地百選,湖沼_7,阿寒三湖,43.45419660462668,144.09953329164188,2020-02-27
新日本観光地百選,湖沼_8,相模湖,35.61281235546938, 139.1828803911607,
新日本観光地百選,湖沼_9,十和田湖,40.4586551,140.8711305,2021-09-01
新日本観光地百選,湖沼_10,宍道湖,35.4436453,132.9603315,2013-09-20
新日本観光地百選,渓谷_1,昇仙峡,35.7458956,138.5674863,2021-06-27
新日本観光地百選,渓谷_2,瀞峡,33.90065266000000,135.88601176000000,
新日本観光地百選,渓谷_3,高千穗峡,32.7017851,131.300939,2025-03-25
新日本観光地百選,渓谷_4,中津川溪谷,35.523711043179986, 139.2907871846304,
新日本観光地百選,渓谷_5,鬼怒川川治龍王峡,36.86405074615084, 139.71300010518317,
新日本観光地百選,渓谷_6,耶馬溪,33.49981269167475, 131.17152681838326,2025-03-26
新日本観光地百選,渓谷_7,恵那峡,35.4793295,137.406667,xxxx-xx-xx
新日本観光地百選,渓谷_8,鈴鹿湯ノ山,35.01502895915072, 136.44749378481845,
新日本観光地百選,渓谷_9,黒部峡,36.814789,137.586112,2024-04-28
新日本観光地百選,渓谷_10,日向神,33.17762370803792, 130.78776206303644,
新日本観光地百選,建造物_1,錦帶橋,34.1671713,132.1790766,2020-10-30
新日本観光地百選,建造物_2,耕三寺,34.3039735,133.0904056,2025-03-04
新日本観光地百選,建造物_3,熊本城,32.8052691,130.7054642,xxxx-xx-xx
新日本観光地百選,建造物_4,姫路城,34.8393313,134.69402,xxxx-xx-xx
新日本観光地百選,建造物_5,伊勢神宮,34.4568901,136.722978,2013-08-01
新日本観光地百選,建造物_6,高崎白衣観音,36.31088615937292, 138.98060650874604,
新日本観光地百選,建造物_7,出羽三山神社,38.70230346089882, 139.98193539857968,2021-08-30
新日本観光地百選,建造物_8,遊行寺,35.3481433,139.4883519,
新日本観光地百選,建造物_9,高幡不動尊,35.6622183,139.4108786,
新日本観光地百選,建造物_10,彦根城,35.2771013,136.2517204,xxxx-xx-xx
特別名勝,158,毛越寺庭園,38.98824032000000,141.10823344000000
特別名勝,182,松島,38.33321554000000,141.09937835000000,2019-08-13,
特別名勝,712,旧浜離宮庭園,35.65989173000000,139.76335008000000
特別名勝,683,小石川後楽園,35.70565502000000,139.74908212000000,2024-10-01
特別名勝,703,六義園,35.73310362000000,139.74642678000000
特別名勝,960,黒部峡谷 附 猿飛並びに奥鐘山,36.60407534000000,137.67633324000000
特別名勝,986,兼六園,36.56208384000000,136.66258067000000,2018-09-11
特別名勝,1062,一乗谷朝倉氏庭園,35.99488747000000,136.29100519000000,xxxx-xx-xx
特別名勝,1095,御嶽昇仙峡,35.74483091000000,138.56625660000000,2021-06-27
特別名勝,1165,上高地,36.28300533000000,137.67525026000000
特別名勝,00003650,平城宮東院庭園,34.68954033000000,135.80225195000000,2023-05-05
特別名勝,2032,平城京左京三条二坊宮跡庭園,34.68389686000000,135.80234295000000
特別名勝,1644,天橋立,35.56976985000000,135.19155891000000,2024-05-03
特別名勝,1700,金地院庭園,35.01003178000000,135.79081861000000
特別名勝,1648,西芳寺庭園,34.99246979000000,135.68431595000000
特別名勝,1658,慈照寺（銀閣寺）庭園,35.02665809000000,135.79825819000000,xxxx-xx-xx
特別名勝,1721,浄瑠璃寺庭園,34.71558963000000,135.87342483000000
特別名勝,1660,醍醐寺三宝院庭園,34.95190472000000,135.81954431000000
特別名勝,1652,大仙院書院庭園,35.04483515000000,135.74557927000000
特別名勝,1650,大徳寺方丈庭園,35.04399010000000,135.74624163000000
特別名勝,1649,天龍寺庭園,35.01576666000000,135.67315715000000
特別名勝,1696,二条城二之丸庭園,35.01350441000000,135.74922346000000,xxxx-xx-xx
特別名勝,1730,法金剛院青女滝 附 五位山,35.01914118000000,135.71608750000000
特別名勝,1687,本願寺大書院庭園,34.99093474000000,135.75126748000000
特別名勝,1654,龍安寺方丈庭園,35.03437089000000,135.71816635000000,xxxx-xx-xx
特別名勝,1657,鹿苑寺（金閣寺）庭園,35.03965336000000,135.72860908000000,xxxx-xx-xx
特別名勝,2245,岡山後楽園,34.66812523000000,133.93513860000000
特別名勝,2315,厳島,34.27116775000000,132.30612349000000,2017-03-14
特別名勝,2318,三段峡,34.61573329000000,132.19561853000000
特別名勝,2502,栗林公園,34.32982808000000,134.04434081000000
特別名勝,2710,虹の松原,33.44418260000000,130.01228907000000,2023-10-05
特別名勝,2745,温泉岳,32.73903249000000,130.27109336000000,2023-10-06
特別名勝,3058,識名園,26.20442507000000,127.71533500000000
特別名勝,3080,瀞八丁,33.90065266000000,135.88601176000000
特別名勝,3081,十和田湖および奥入瀬渓流,40.47141575000000,140.87574466000000,2021-09-01
特別名勝,3088,富士山,35.36267976000000,138.73071624000000,2017-09-08
拠点空港,会社管理1,成田国際空港,35.7722251214565, 140.38627323994763,"2016-05-23,2018-03-25"
拠点空港,会社管理2,中部国際空港,34.85926565441404, 136.81611185421968,xxxx-xx-xx
拠点空港,会社管理3,関西国際空港,34.43593623089248, 135.24341222310343,
拠点空港,会社管理4,大阪国際空港,34.791393066196385, 135.44198825908595,
拠点空港,国管理1,東京国際空港（羽田空港）,35.55284939330577, 139.78415116823123,"2025-03-26,他多数"
拠点空港,国管理2,新千歳空港,42.78758901325025, 141.68041693822863,"2016-09-19,2024-06-04,他多数"
拠点空港,国管理3,稚内空港,45.39954636017783, 141.7975895236786,
拠点空港,国管理4,釧路空港,43.045150370198385, 144.19627487418182
拠点空港,国管理5,函館空港,41.7757042425323, 140.8158210420703,2025-??-??
拠点空港,国管理6,仙台空港,38.13809871969649, 140.92991079321797
拠点空港,国管理7,新潟空港,37.95208884527103, 139.113270988442
拠点空港,国管理8,広島空港,34.44006185154478, 132.9188453495006,2025-03-04
拠点空港,国管理9,高松空港,34.218814817328685, 134.018737379259
拠点空港,国管理10,松山空港,33.82893011282363, 132.70429299680836,2025-??-??
拠点空港,国管理11,高知空港,33.54761498864953, 133.6740992140731,2021-03-24
拠点空港,国管理12,福岡空港,33.58519272017298, 130.44399550657758,"2016-03-15,2017-11-25,2019-03-14"
拠点空港,国管理13,北九州空港,33.83958804369873, 131.0317333758134
拠点空港,国管理14,長崎空港,32.91448019592898, 129.92213644321598,2023-10-04
拠点空港,国管理15,熊本空港,32.83473860625796, 130.8590191192712,2024-02-05
拠点空港,国管理16,大分空港,33.47626109668148, 131.73263788190687,2025-03-24
拠点空港,国管理17,宮崎空港,31.872838820045533, 131.44164767063245,2025-03-24
拠点空港,国管理18,鹿児島空港,31.801151296205365, 130.71603673617568,2023-02-06
拠点空港,国管理19,那覇空港,26.208007473725193, 127.65089685426358,"2017-06-23,2019-06-17"
拠点空港,特定地方管理1,旭川空港,43.670617685781345, 142.45444474296585,2020-02-28
拠点空港,特定地方管理2,帯広空港,42.732229517256805, 143.2127242191209
拠点空港,特定地方管理3,秋田空港,39.6118791067311, 140.2198639006137
拠点空港,特定地方管理4,山形空港,38.41054263747263, 140.36644002292647
拠点空港,特定地方管理5,山口宇部空港,33.93311713011551, 131.27493063653358,2020-10-28
国立公園,1,利尻礼文サロベツ国立公園,45.178200280760464, 141.23939409954784,2024-01-30
国立公園,2,知床国立公園,44.152821568098574, 145.1867648152353,2020-02-25
国立公園,2,知床国立公園,44.152821568098574, 145.1867648152353,2020-02-25
国立公園,3,阿寒摩周国立公園,43.52668617422489, 144.22829276022853,2020-02-27
国立公園,4,釧路湿原国立公園,43.10947843123149, 144.3983667184413,2020-02-26
国立公園,5,大雪山国立公園,43.658343380518794, 142.86306494114774,2020-02-26
国立公園,6,日高山脈襟裳十勝国立公園,41.926069153498126, 143.24456178720655,2024-06-05
国立公園,7,支笏洞爺国立公園,42.7561767327256, 141.33026541659842,2024-06-07
国立公園,8,十和田八幡平国立公園,40.47110934048868, 140.88627737768655,2021-09-01
国立公園,9,三陸復興国立公園,39.007239770843654, 141.6268094473879
国立公園,10,磐梯朝日国立公園,38.7044979486495, 139.96766304844414,"2021-08-22,2021-08-30"
国立公園,11,日光国立公園,36.738387509961996, 139.50199088042842,"2021-02-06,2024-08-31"
国立公園,12,尾瀬国立公園,36.93496782837941, 139.23401448697805
国立公園,13,上信越高原国立公園,36.44297833581338, 138.5374158291381,"2014-08-02,2022-01-29,2023-07-23"
国立公園,14,妙高戸隠連山国立公園,36.828835936357464, 138.0791544628742
国立公園,15,秩父多摩甲斐国立公園,35.92543117788313, 138.93045723037127,"2021-01-09,2021-02-13,2021-06-27"
国立公園,16,小笠原国立公園,27.070201367156166, 142.21283617032105
国立公園,17,富士箱根伊豆国立公園,35.36188203653305, 138.73113807010023,"2017-09-08,2021-05-15,2023-08-18,他多数"
国立公園,18,中部山岳国立公園,36.58082057255814, 137.59751733082612,2024-04-27
国立公園,10,白山国立公園,36.16094504769295, 136.76650687277703
国立公園,20,南アルプス国立公園,35.67480678476896, 138.23881657285753
国立公園,21,伊勢志摩国立公園,34.39103586538149, 136.77973995900277,2013-08-03
国立公園,22,吉野熊野国立公園,34.112145404569674, 135.93952857133348,2017-03-28
国立公園,23,山陰海岸国立公園,35.546311326912395, 134.2326165785396,2018-08-23
国立公園,24,瀬戸内海国立公園,34.29596627127219, 132.31983441655333,"2017-03-14,2022-08-20,2025-03-05"
国立公園,25,大山隠岐国立公園,35.37517216313916, 133.54883828319157,2013-09-20
国立公園,26,足摺宇和海国立公園,32.72511979465165, 133.01960147443057,2021-03-24
国立公園,27,西海国立公園,33.21754468643158, 129.55365225140721,2023-10-05
国立公園,28,雲仙天草国立公園,32.74077247402044, 130.26167020710963,2023-10-06
国立公園,29,阿蘇くじゅう国立公園,32.88437782975219, 131.08556734614626,"2024-02-06,2025-03-25"
国立公園,30,霧島錦江湾国立公園,31.911638827240612, 130.8832852889173,"xxxx-xx-xx,2023-02-08"
国立公園,31,屋久島国立公園,30.33244429110601, 130.5338607120797,"xxxx-xx-xx,2018-08-02"
国立公園,32,奄美群島国立公園,28.265031053413963, 129.37550054834148,"xxxx-xx-xx"
国立公園,33,やんばる国立公園,26.77585613351588, 128.27592086637608
国立公園,34,慶良間諸島国立公園,26.20145320773654, 127.35748582555122
国立公園,35,西表石垣国立公園,24.336179283114706, 123.82360827236369
面積の大きな島,1,本州,36.0000,138.0000,2025-03-04,,227938.36 km^2
面積の大きな島,2,北海道,43.0000,142.0000,2025-06-04,,77982.36 km^2
面積の大きな島,3,九州,33.0000,131.0000,2025-03-24,,36782.36 km^2
面積の大きな島,4,四国,33.7500,133.5000,2022-08-20,,18296.23 km^2
面積の大きな島,5,択捉島,45.0333,147.6167,,,3166.64 km^2
面積の大きな島,6,国後島,44.1167,145.8500,,,1489.27 km^2
面積の大きな島,7,沖縄島,26.5000,127.9333,2017-06-23,,1208.44 km^2
面積の大きな島,8,佐渡島,38.0675,138.3975,,,854.81 km^2
面積の大きな島,9,奄美大島,28.2833,129.3667,xxxx-xx-xx,,712.41 km^2
面積の大きな島,10,対馬,34.4167,129.3333,,,695.74 km^2
面積の大きな島,11,淡路島,34.3833,134.8333,2022-08-21,,592.44 km^2
面積の大きな島,12,下島（天草）,32.3333,130.0833,xxxx-xx-xx,,574.95 km^2
面積の大きな島,13,屋久島,30.3439,130.5239,2018-08-02,,504.25 km^2
面積の大きな島,14,種子島,30.5710,130.9753,xxxx-xx-xx,,443.67 km^2
面積の大きな島,15,福江島（五島列島）,32.6833,128.7500,,,326.36 km^2
面積の大きな島,16,西表島,24.330,123.8000,,,289.62 km^2
面積の大きな島,17,徳之島,27.7715,128.9542,xxxx-xx-xx,,247.85 km^2
面積の大きな島,18,色丹島,43.8000,146.7500,,,247.65 km^2
面積の大きな島,19,島後（隠岐諸島）,36.2330,133.2830,,,241.53 km^2
面積の大きな島,20,上島（天草）,32.458, 130.34,xxxx-xx-xx,,225.85 km^2
